City_ID,City,Country,Date,Lat,Lng,Max Temp,Humidity,Cloudiness,Wind Speed
0,Butaritari,KI,2022-04-26 06:34:16,3.0707,172.7902,81.55,83,27,17.52
1,Saint George,US,2022-04-26 06:34:17,37.1041,-113.5841,63.25,22,0,3.44
2,Upernavik,GL,2022-04-26 06:34:17,72.7868,-56.1549,12.97,82,100,6.06
3,Ushuaia,AR,2022-04-26 06:34:18,-54.8,-68.3,38.86,70,75,6.91
4,Vaini,TO,2022-04-26 06:34:18,-21.2,-175.2,73.56,78,75,6.91
5,Jamestown,US,2022-04-26 06:34:15,42.097,-79.2353,53.24,75,100,8.05
6,Comodoro Rivadavia,AR,2022-04-26 06:30:01,-45.8667,-67.5,57.06,38,0,25.32
7,Mataura,NZ,2022-04-26 06:34:20,-46.1927,168.8643,53.47,90,99,10.11
8,Barrow,US,2022-04-26 06:30:02,71.2906,-156.7887,10.42,85,100,13.8
9,Hithadhoo,MV,2022-04-26 06:34:21,-0.6,73.0833,85.17,71,98,7.74
10,Ponta Do Sol,PT,2022-04-26 06:34:21,32.6667,-17.1,59.72,70,21,7.74
11,Rikitea,PF,2022-04-26 06:33:57,-23.1203,-134.9692,76.98,78,24,15.77
12,Shurugwi,ZW,2022-04-26 06:34:22,-19.6702,30.0059,64.13,78,45,9.98
13,Bredasdorp,ZA,2022-04-26 06:34:22,-34.5322,20.0403,59.2,69,86,1.01
14,Ulladulla,AU,2022-04-26 06:34:23,-35.35,150.4667,65.3,81,100,3.91
15,Hasaki,JP,2022-04-26 06:34:24,35.7333,140.8333,72.28,84,100,25.66
16,Lasa,IT,2022-04-26 06:34:24,46.6166,10.7002,49.08,93,93,2.53
17,Kimbe,PG,2022-04-26 06:34:25,-5.5502,150.1429,82.56,80,90,2.8
18,Maningrida,AU,2022-04-26 06:34:26,-12.0667,134.2667,86.79,61,100,8.52
19,Busselton,AU,2022-04-26 06:34:03,-33.65,115.3333,66.87,54,97,11.41
20,Cidreira,BR,2022-04-26 06:34:26,-30.1811,-50.2056,67.35,95,100,8.86
21,Huanren,CN,2022-04-26 06:34:27,41.2647,125.3667,63.5,22,85,14.12
22,Rio Gallegos,AR,2022-04-26 06:29:30,-51.6226,-69.2181,30.25,100,0,5.75
23,Qaanaaq,GL,2022-04-26 06:33:58,77.484,-69.3632,5.83,60,47,7.72
24,Tuktoyaktuk,CA,2022-04-26 06:34:28,69.4541,-133.0374,24.57,95,98,5.84
25,Esperance,AU,2022-04-26 06:34:29,-33.8667,121.9,76.84,58,100,8.61
26,Margate,GB,2022-04-26 06:34:29,51.3813,1.3862,49.69,72,5,5.99
27,Kaitangata,NZ,2022-04-26 06:34:30,-46.2817,169.8464,53.58,75,94,15.73
28,Grand Gaube,MU,2022-04-26 06:34:30,-20.0064,57.6608,81.37,64,0,11.99
29,Yellowknife,CA,2022-04-26 06:34:31,62.456,-114.3525,37.92,65,75,9.22
30,Mehamn,NO,2022-04-26 06:34:31,71.0357,27.8492,24.71,63,100,29.42
31,Torbay,CA,2022-04-26 06:30:09,47.6666,-52.7314,37.58,96,100,17.0
32,Smirnykh,RU,2022-04-26 06:32:11,49.75,142.8333,30.24,96,100,11.03
33,Mogadishu,SO,2022-04-26 06:33:36,2.0371,45.3438,87.67,74,40,5.75
34,Cedar City,US,2022-04-26 06:34:33,37.6775,-113.0619,49.39,39,0,0.0
35,Mangrol,IN,2022-04-26 06:34:34,21.1167,70.1167,91.04,45,0,15.01
36,Alofi,NU,2022-04-26 06:34:34,-19.0595,-169.9187,78.69,89,100,8.05
37,Bilibino,RU,2022-04-26 06:34:35,68.0546,166.4372,28.04,82,100,4.56
38,Beloha,MG,2022-04-26 06:34:35,-25.1667,45.05,86.67,43,90,5.55
39,Krasnoselkup,RU,2022-04-26 06:34:36,65.7,82.4667,25.3,76,98,6.98
40,Lebu,CL,2022-04-26 06:34:36,-37.6167,-73.65,52.97,96,100,12.55
41,Dingle,PH,2022-04-26 06:34:37,10.9995,122.6711,87.85,64,94,11.99
42,Zhob,PK,2022-04-26 06:24:50,31.3411,69.4481,83.43,8,3,3.09
43,Muroto,JP,2022-04-26 06:34:37,33.2833,134.15,70.48,95,100,22.37
44,Ancud,CL,2022-04-26 06:34:38,-41.8697,-73.8203,47.23,78,98,19.26
45,Hobart,AU,2022-04-26 06:35:39,-42.8794,147.3294,62.02,70,75,6.91
46,Avarua,CK,2022-04-26 06:35:39,-21.2078,-159.775,75.25,100,100,2.3
47,Atuona,PF,2022-04-26 06:35:40,-9.8,-139.0333,79.2,77,15,20.33
48,Tasiilaq,GL,2022-04-26 06:35:40,65.6145,-37.6368,30.36,96,100,2.64
49,Pevek,RU,2022-04-26 06:35:41,69.7008,170.3133,25.2,81,99,4.88
50,Camacha,PT,2022-04-26 06:35:41,33.0833,-16.3333,56.62,82,40,9.22
51,Port Hardy,CA,2022-04-26 06:35:42,50.6996,-127.4199,42.8,93,75,3.44
52,Vostok,RU,2022-04-26 06:35:43,46.4856,135.8833,54.34,79,100,1.86
53,Yulara,AU,2022-04-26 06:35:43,-25.2406,130.9889,82.24,24,5,4.61
54,San Juan,AR,2022-04-26 06:35:44,-31.5375,-68.5364,60.42,39,0,2.42
55,Marquette,US,2022-04-26 06:32:11,46.5333,-87.6335,28.78,74,100,7.85
56,Kuryk,KZ,2022-04-26 06:35:45,43.2,51.65,75.09,26,0,15.84
57,Mount Gambier,AU,2022-04-26 06:35:46,-37.8333,140.7667,69.71,46,100,10.36
58,Tiksi,RU,2022-04-26 06:35:46,71.6872,128.8694,10.99,85,79,1.59
59,Albany,US,2022-04-26 06:35:13,42.6001,-73.9662,54.01,77,100,3.98
60,Kroya,ID,2022-04-26 06:35:48,-7.6331,109.2461,85.3,71,100,7.07
61,East London,ZA,2022-04-26 06:35:48,-33.0153,27.9116,61.74,63,0,4.61
62,Provideniya,RU,2022-04-26 06:35:49,64.3833,-173.3,26.91,88,79,10.67
63,Kruisfontein,ZA,2022-04-26 06:35:50,-34.0033,24.7314,59.36,58,1,10.51
64,Thompson,CA,2022-04-26 06:35:51,55.7435,-97.8558,17.76,49,75,2.3
65,Cape Town,ZA,2022-04-26 06:35:52,-33.9258,18.4232,61.92,73,20,17.27
66,Carnarvon,AU,2022-04-26 06:34:02,-24.8667,113.6333,78.87,65,31,12.66
67,New Norfolk,AU,2022-04-26 06:35:53,-42.7826,147.0587,61.66,62,95,3.51
68,Codrington,AU,2022-04-26 06:35:53,-38.2667,141.9667,69.44,48,100,7.02
69,Kavieng,PG,2022-04-26 06:35:54,-2.5744,150.7967,83.55,74,52,10.71
70,Buchanan,LR,2022-04-26 06:35:55,5.8808,-10.0467,79.11,88,98,3.62
71,Dikson,RU,2022-04-26 06:33:09,73.5069,80.5464,17.98,86,100,7.7
72,Marevo,RU,2022-04-26 06:35:56,57.3146,32.0804,43.34,86,100,6.87
73,Saint-Philippe,RE,2022-04-26 06:35:57,-21.3585,55.7679,81.99,72,33,13.71
74,Kodiak,US,2022-04-26 06:34:20,57.79,-152.4072,40.51,75,20,5.75
75,Mahebourg,MU,2022-04-26 06:35:57,-20.4081,57.7,81.25,69,40,11.5
76,Cabo San Lucas,MX,2022-04-26 06:35:14,22.8909,-109.9124,72.52,58,1,8.86
77,Flinders,AU,2022-04-26 06:35:58,-34.5833,150.8552,68.18,82,100,5.99
78,Ierapetra,GR,2022-04-26 06:35:59,35.01,25.7353,66.15,72,100,1.01
79,Bandarbeyla,SO,2022-04-26 06:29:27,9.4942,50.8122,84.63,61,51,3.87
80,Kapaa,US,2022-04-26 06:36:00,22.0752,-159.319,78.78,90,75,16.11
81,Saldanha,ZA,2022-04-26 06:36:00,-33.0117,17.9442,50.05,71,96,11.56
82,Yambio,SS,2022-04-26 06:36:01,4.5721,28.3955,74.86,72,100,6.22
83,Nanortalik,GL,2022-04-26 06:36:01,60.1432,-45.2371,32.58,93,100,6.85
84,Asau,RO,2022-04-26 06:36:02,46.4333,26.4,62.96,42,8,6.76
85,Haines Junction,CA,2022-04-26 06:36:02,60.7522,-137.5108,35.55,69,98,3.44
86,Guerrero Negro,MX,2022-04-26 06:36:03,27.9769,-114.0611,62.01,75,0,8.3
87,Castro,BR,2022-04-26 06:36:03,-24.7911,-50.0119,58.19,83,61,2.06
88,Buraydah,SA,2022-04-26 06:36:04,26.326,43.975,79.25,33,0,7.94
89,Sao Filipe,CV,2022-04-26 06:36:04,14.8961,-24.4956,74.7,64,1,9.57
90,Tuatapere,NZ,2022-04-26 06:36:05,-46.1333,167.6833,51.31,85,89,10.98
91,Georgetown,MY,2022-04-26 06:36:05,5.4112,100.3354,91.35,63,20,10.36
92,Bethel,US,2022-04-26 06:32:27,41.3712,-73.414,51.89,56,100,4.61
93,Kahului,US,2022-04-26 06:37:06,20.8947,-156.47,74.84,80,40,17.27
94,Sitka,US,2022-04-26 06:37:07,57.0531,-135.33,46.29,76,75,3.44
95,Bluff,NZ,2022-04-26 06:33:54,-46.6,168.3333,53.8,78,98,24.27
96,Demyansk,RU,2022-04-26 06:37:08,57.643,32.466,42.71,91,100,6.67
97,Mastic Beach,US,2022-04-26 06:37:08,40.7668,-72.8521,52.54,79,100,8.99
98,Hilo,US,2022-04-26 06:37:09,19.7297,-155.09,74.28,97,100,6.91
99,Punta Arenas,CL,2022-04-26 06:37:09,-53.15,-70.9167,28.51,93,0,6.91
100,Severo-Kurilsk,RU,2022-04-26 06:37:10,50.6789,156.125,33.37,87,90,23.82
101,Pedernales,DO,2022-04-26 06:37:11,18.0384,-71.744,76.42,72,15,2.93
102,Nuuk,GL,2022-04-26 06:35:50,64.1835,-51.7216,30.81,74,75,23.02
103,Inhambane,MZ,2022-04-26 06:37:11,-23.865,35.3833,78.78,83,40,6.91
104,Tikhvin,RU,2022-04-26 06:37:12,59.6451,33.5294,40.21,97,100,3.85
105,Saint Anthony,US,2022-04-26 06:37:13,45.0205,-93.218,30.92,67,100,13.8
106,Ketchikan,US,2022-04-26 06:36:35,55.3422,-131.6461,42.78,89,100,4.7
107,Hwange,ZW,2022-04-26 06:37:13,-18.3693,26.5019,77.47,49,8,4.34
108,High Level,CA,2022-04-26 06:37:14,58.5169,-117.136,48.31,49,0,9.22
109,Genhe,CN,2022-04-26 06:37:15,50.7833,121.5167,42.42,29,100,11.21
110,Saskylakh,RU,2022-04-26 06:37:15,71.9167,114.0833,15.31,87,54,3.22
111,Te Anau,NZ,2022-04-26 06:37:16,-45.4167,167.7167,48.33,83,8,2.73
112,Gardez,AF,2022-04-26 06:37:16,33.5974,69.2259,69.69,13,49,6.46
113,Ixtapa,MX,2022-04-26 06:37:17,20.7,-105.2,73.22,81,0,2.59
114,Puerto Ayora,EC,2022-04-26 06:37:18,-0.7393,-90.3518,70.84,92,9,5.44
115,Armeria,MX,2022-04-26 06:37:18,18.9333,-103.9667,68.4,89,8,2.93
116,Kralendijk,BQ,2022-04-26 06:37:19,12.15,-68.2667,80.58,78,75,13.8
117,Bambous Virieux,MU,2022-04-26 06:37:19,-20.3428,57.7575,81.21,69,40,11.5
118,Shelburne,CA,2022-04-26 06:37:20,44.0787,-80.2041,45.36,81,100,11.23
119,Port Alfred,ZA,2022-04-26 06:34:02,-33.5906,26.891,60.19,77,0,4.0
120,Fairbanks,US,2022-04-26 06:35:32,64.8378,-147.7164,39.16,65,75,0.0
121,Lazaro Cardenas,MX,2022-04-26 06:37:21,17.9583,-102.2,72.09,82,15,2.46
122,Mar Del Plata,AR,2022-04-26 06:37:22,-38.0023,-57.5575,60.94,71,10,8.01
123,Katangli,RU,2022-04-26 06:37:22,51.7102,143.2326,31.19,82,100,13.89
124,Hermanus,ZA,2022-04-26 06:37:23,-34.4187,19.2345,59.32,71,54,5.41
125,Kirakira,SB,2022-04-26 06:37:24,-10.4544,161.9205,82.06,78,63,4.03
126,Svoronos,GR,2022-04-26 06:37:24,40.2644,22.46,63.54,47,0,3.29
127,Sinnamary,GF,2022-04-26 06:37:25,5.3833,-52.95,77.59,87,100,8.01
128,Isangel,VU,2022-04-26 06:37:25,-19.55,169.2667,75.31,73,100,5.75
129,Nikolskoye,RU,2022-04-26 06:37:26,59.7035,30.7861,46.8,74,26,7.11
130,La Rioja,ES,2022-04-26 06:37:26,42.25,-2.5,38.98,70,100,2.8
131,Porosozero,RU,2022-04-26 06:37:27,62.7191,32.727,39.2,91,100,4.36
132,Batman,TR,2022-04-26 06:37:28,37.8874,41.1322,69.6,60,75,2.3
133,Kupang,ID,2022-04-26 06:37:28,-10.1667,123.5833,84.92,55,100,2.93
134,Coahuayana,MX,2022-04-26 06:29:22,18.7333,-103.6833,68.52,86,14,3.0
135,Torrington,US,2022-04-26 06:37:29,41.8007,-73.1212,50.54,30,100,5.32
136,Portland,US,2022-04-26 06:35:29,45.5234,-122.6762,51.37,86,100,1.99
137,Rabo De Peixe,PT,2022-04-26 06:37:30,37.8,-25.5833,56.28,80,20,3.44
138,Petropavlovsk-Kamchatskiy,RU,2022-04-26 06:38:30,53.0452,158.6483,45.19,39,75,15.66
139,Iqaluit,CA,2022-04-26 06:38:31,63.7506,-68.5145,-13.27,77,0,3.44
140,Arman,RU,2022-04-26 06:38:32,59.7,150.1667,35.02,63,100,6.26
141,Abha,SA,2022-04-26 06:38:32,18.2164,42.5053,68.25,46,20,4.61
142,Harper,LR,2022-04-26 06:38:33,4.375,-7.7169,78.55,88,90,4.29
143,Bogotol,RU,2022-04-26 06:38:34,56.2078,89.5342,48.79,43,97,12.97
144,Coihaique,CL,2022-04-26 06:34:48,-45.5752,-72.0662,38.01,93,100,1.14
145,Ilave,PE,2022-04-26 06:38:34,-16.0833,-69.6667,38.12,66,77,1.23
146,Klamath Falls,US,2022-04-26 06:38:35,42.2249,-121.7817,44.96,79,40,9.22
147,Omboue,GA,2022-04-26 06:38:36,-1.5746,9.2618,79.99,84,100,2.86
148,Sorong,ID,2022-04-26 06:38:36,-0.8833,131.25,82.9,78,100,7.27
149,Joigny,FR,2022-04-26 06:38:37,47.9829,3.401,41.81,83,0,5.53
150,Sivas,TR,2022-04-26 06:38:37,39.7916,37.0019,63.23,36,0,9.22
151,Daru,PG,2022-04-26 06:38:38,-9.0763,143.2092,83.57,75,100,6.51
152,Longyearbyen,SJ,2022-04-26 06:38:38,78.2186,15.6401,-0.56,55,20,11.5
153,Nushki,PK,2022-04-26 06:38:39,29.5542,66.0215,90.97,8,19,8.48
154,Atar,MR,2022-04-26 06:38:40,20.5169,-13.0499,66.33,53,0,8.46
155,Hofn,IS,2022-04-26 06:38:41,64.2539,-15.2082,39.06,91,100,3.22
156,Kungurtug,RU,2022-04-26 06:38:43,50.5994,97.5228,39.09,38,100,1.66
157,Aleksandrov Gay,RU,2022-04-26 06:38:44,50.147,48.5704,68.09,48,68,13.8
158,Arrecife,ES,2022-04-26 06:38:45,28.963,-13.5477,64.38,72,40,9.22
159,Narsaq,GL,2022-04-26 06:38:45,60.9167,-46.05,37.62,94,100,3.44
160,Faanui,PF,2022-04-26 06:38:46,-16.4833,-151.75,82.18,72,99,14.38
161,Bengkulu,ID,2022-04-26 06:38:47,-3.8004,102.2655,85.68,63,92,7.0
162,Paamiut,GL,2022-04-26 06:38:48,61.994,-49.6678,29.95,86,100,6.93
163,Waipawa,NZ,2022-04-26 06:38:48,-41.4122,175.5153,52.0,86,0,2.42
164,Tura,IN,2022-04-26 06:38:49,25.5198,90.2201,91.18,46,0,7.34
165,Aksarka,RU,2022-04-26 06:38:50,66.5606,67.7975,31.08,94,95,6.29
166,Rehburg-Loccum,DE,2022-04-26 06:38:51,52.4667,9.2,48.31,90,20,0.0
167,Zheleznodorozhnyy,RU,2022-04-26 06:38:51,55.7503,38.0042,57.22,63,100,3.44
168,Dhidhdhoo,MV,2022-04-26 06:38:52,6.8833,73.1,85.1,69,93,5.12
169,Aklavik,CA,2022-04-26 06:38:53,68.2191,-135.0107,31.35,99,100,5.86
170,Dera Ghazi Khan,PK,2022-04-26 06:38:54,30.0561,70.6348,106.14,8,1,6.29
171,Srisailam,IN,2022-04-26 06:38:54,16.0833,78.8667,104.41,16,1,6.04
172,Sciacca,IT,2022-04-26 06:38:55,37.5082,13.0881,68.65,54,26,3.31
173,Lompoc,US,2022-04-26 06:38:56,34.6391,-120.4579,53.02,86,100,18.99
174,Huntsville,US,2022-04-26 06:38:56,34.7304,-86.5861,64.15,96,100,10.36
175,Marrakesh,MA,2022-04-26 06:38:57,31.6315,-8.0083,57.27,72,40,4.61
176,Egvekinot,RU,2022-04-26 06:35:19,66.3167,-179.1667,15.89,86,100,8.61
177,Rocha,UY,2022-04-26 06:38:58,-34.4833,-54.3333,64.31,98,100,2.95
178,Xining,CN,2022-04-26 06:38:58,36.6167,101.7667,69.3,22,49,6.73
179,Pochutla,MX,2022-04-26 06:38:59,15.7432,-96.4661,77.83,72,0,1.99
180,Beeville,US,2022-04-26 06:38:59,28.4008,-97.7483,65.62,94,100,10.36
181,Norman Wells,CA,2022-04-26 06:39:00,65.282,-126.8329,37.44,70,75,3.44
182,Broken Hill,AU,2022-04-26 06:40:00,-31.95,141.4333,60.51,94,75,16.11
183,Grand Baie,MU,2022-04-26 06:40:01,-20.0182,57.5802,81.45,65,0,8.01
184,Parral,MX,2022-04-26 06:40:02,26.9333,-105.6667,57.72,79,5,1.97
185,Ostrovnoy,RU,2022-04-26 06:40:03,68.0531,39.5131,30.72,87,100,22.15
186,Port-De-Bouc,FR,2022-04-26 06:40:03,43.4,4.9833,57.22,89,100,5.75
187,Miandrivazo,MG,2022-04-26 06:41:55,-19.5167,45.4667,84.51,51,7,2.95
188,Whitehorse,CA,2022-04-26 06:41:56,60.7161,-135.0538,43.57,52,75,5.75
189,Barranca,PE,2022-04-26 06:41:56,-10.75,-77.7667,65.71,89,100,6.69
190,Faya,SA,2022-04-26 06:41:57,18.3851,42.4509,68.52,24,0,0.87
191,Labuhan,ID,2022-04-26 06:41:57,-6.8844,112.2051,85.66,68,100,7.4
192,Surskoye,RU,2022-04-26 06:41:58,54.4821,46.7214,61.97,65,100,13.91
193,San Cristobal,VE,2022-04-26 06:41:58,7.7669,-72.225,65.75,89,99,1.07
194,Fare,PF,2022-04-26 06:41:59,-16.7,-151.0167,81.97,71,10,15.03
195,Antofagasta,CL,2022-04-26 06:37:16,-23.65,-70.4,58.28,88,84,3.31
196,Aykhal,RU,2022-04-26 06:41:59,66.0,111.5,24.62,61,99,2.98
197,Nioro,GM,2022-04-26 06:42:00,13.35,-15.75,77.25,39,0,9.17
198,Vao,NC,2022-04-26 06:42:00,-22.6667,167.4833,74.32,55,100,17.65
199,Olafsvik,IS,2022-04-26 06:42:01,64.8945,-23.7142,42.58,72,100,7.56
200,Lagoa,PT,2022-04-26 06:42:01,39.05,-27.9833,58.62,71,84,10.25
201,Kalmar,SE,2022-04-26 06:42:02,56.6616,16.3616,49.14,73,0,1.99
202,Havre-Saint-Pierre,CA,2022-04-26 06:42:02,50.2334,-63.5986,32.36,100,100,13.8
203,Oudtshoorn,ZA,2022-04-26 06:40:27,-33.5907,22.2014,53.96,71,7,1.23
204,Solin,HR,2022-04-26 06:42:03,43.55,16.5,60.12,59,0,3.44
205,Lavrentiya,RU,2022-04-26 06:42:04,65.5833,-171.0,16.66,91,95,6.31
206,Ribeira Grande,PT,2022-04-26 06:42:05,38.5167,-28.7,59.4,77,75,5.75
207,Dunedin,NZ,2022-04-26 06:41:36,-45.8742,170.5036,56.8,63,86,24.0
208,Avera,US,2022-04-26 06:42:05,33.194,-82.5271,67.55,86,0,6.44
209,Rio Do Sul,BR,2022-04-26 06:42:06,-27.2142,-49.6431,64.35,93,98,1.01
210,Fukue,JP,2022-04-26 06:42:06,32.6881,128.8419,70.16,100,75,16.11
211,Vila Velha,BR,2022-04-26 06:42:07,-20.3297,-40.2925,71.94,90,20,1.14
212,Ust-Kalmanka,RU,2022-04-26 06:42:07,52.1207,83.305,54.72,32,84,3.58
213,Talnakh,RU,2022-04-26 06:42:08,69.4865,88.3972,15.21,86,100,6.49
214,Chokurdakh,RU,2022-04-26 06:42:08,70.6333,147.9167,11.28,93,7,3.38
215,Fortuna,US,2022-04-26 06:42:09,40.5982,-124.1573,50.67,93,40,5.75
216,Teixoso,PT,2022-04-26 06:42:09,40.3145,-7.4576,43.56,77,97,1.99
217,Richards Bay,ZA,2022-04-26 06:42:10,-28.783,32.0377,67.66,63,80,12.24
218,Eura,FI,2022-04-26 06:42:10,61.1333,22.1333,40.78,60,23,9.64
219,Geraldton,AU,2022-04-26 06:42:11,-28.7667,114.6,73.81,56,100,12.66
220,Santa Ines,BR,2022-04-26 06:42:03,-3.6667,-45.38,73.0,97,96,3.0
221,Touros,BR,2022-04-26 06:42:12,-5.1989,-35.4608,74.44,92,97,8.99
222,Lata,PT,2022-04-26 06:42:12,40.1629,-8.3327,52.07,75,100,2.17
223,Puerto Madero,MX,2022-04-26 06:42:13,14.7208,-92.4215,81.61,75,98,5.08
224,Auki,SB,2022-04-26 06:42:13,-8.7676,160.7034,80.71,83,90,2.33
225,Caravelas,BR,2022-04-26 06:42:14,-17.7125,-39.2481,73.18,88,1,2.86
226,Luderitz,NA,2022-04-26 06:42:15,-26.6481,15.1594,66.27,39,0,9.8
227,Chalmette,US,2022-04-26 06:41:54,29.9427,-89.9634,71.6,81,100,12.66
228,Sampang,ID,2022-04-26 06:42:15,-7.1872,113.2394,84.76,72,100,5.59
229,Kavaratti,IN,2022-04-26 07:17:42,10.5669,72.642,85.78,71,30,6.44
230,Vila Franca Do Campo,PT,2022-04-26 07:17:42,37.7167,-25.4333,57.2,82,12,6.71
231,Vestmannaeyjar,IS,2022-04-26 07:17:43,63.4427,-20.2734,45.48,81,100,11.07
232,Puerto Penasco,MX,2022-04-26 07:17:44,31.3167,-113.5333,73.9,35,77,1.99
233,Excelsior Springs,US,2022-04-26 07:17:45,39.3392,-94.2261,45.3,81,4,6.06
234,Rio Grande,BR,2022-04-26 07:17:45,-32.035,-52.0986,59.95,91,96,6.26
235,Salalah,OM,2022-04-26 07:17:46,17.0151,54.0924,89.69,55,20,9.22
236,Bama,NG,2022-04-26 07:17:46,11.5221,13.6856,90.57,42,75,16.2
237,Port Elizabeth,ZA,2022-04-26 07:17:47,-33.918,25.5701,63.32,63,0,11.01
238,Le Vauclin,MQ,2022-04-26 07:17:47,14.5452,-60.8388,77.85,88,75,5.75
239,Miraflores,MX,2022-04-26 07:17:48,19.2167,-98.8083,62.02,70,86,2.46
240,Dalaba,GN,2022-04-26 07:17:48,10.7,-12.25,63.68,74,32,1.99
241,Bela Vista,BR,2022-04-26 07:17:49,-22.1089,-56.5211,75.7,69,0,6.87
242,Kanniyakumari,IN,2022-04-26 07:17:49,8.0833,77.5667,87.96,67,20,6.71
243,Zhifang,CN,2022-04-26 07:17:50,30.35,114.3167,84.18,51,100,5.75
244,Leh,IN,2022-04-26 07:17:50,34.1667,77.5833,46.71,37,62,4.76
245,Chuy,UY,2022-04-26 07:17:51,-33.6971,-53.4616,61.3,97,12,4.43
246,Bubaque,GW,2022-04-26 07:17:52,11.2833,-15.8333,77.47,72,2,7.45
247,Merauke,ID,2022-04-26 07:17:52,-8.4667,140.3333,84.09,72,78,10.6
248,Bella Union,UY,2022-04-26 07:17:53,-30.2752,-57.6007,68.38,98,45,12.44
249,Clive,US,2022-04-26 07:17:53,41.603,-93.7241,34.02,81,0,5.75
250,Lorengau,PG,2022-04-26 07:17:54,-2.0226,147.2712,82.56,76,15,8.57
251,Kearney,US,2022-04-26 07:17:54,40.6995,-99.0815,38.25,44,0,4.61
252,San Patricio,US,2022-04-26 07:17:55,28.017,-97.5169,75.06,91,100,12.12
253,Coquimbo,CL,2022-04-26 07:16:46,-29.9533,-71.3436,55.13,100,100,6.91
254,Port Blair,IN,2022-04-26 07:17:04,11.6667,92.75,86.04,74,75,9.22
255,Marshall,US,2022-04-26 07:17:56,34.3834,-86.3333,67.75,82,100,5.75
256,Bilma,NE,2022-04-26 07:17:57,18.6853,12.9164,90.05,11,3,2.62
257,Butembo,CD,2022-04-26 07:17:57,0.15,29.2833,62.35,95,100,1.41
258,Flin Flon,CA,2022-04-26 07:17:58,54.7682,-101.865,15.46,95,8,5.35
259,Poum,NC,2022-04-26 07:17:58,-20.2333,164.0167,77.41,65,100,17.98
260,Tinskoy,RU,2022-04-26 07:17:59,56.1525,96.9161,46.51,42,100,10.02
261,Abu Kamal,SY,2022-04-26 07:17:59,34.4506,40.9171,80.89,34,68,9.37
262,Havelock,US,2022-04-26 07:18:00,34.8791,-76.9013,68.95,93,0,4.61
263,Inirida,CO,2022-04-26 07:18:00,3.8653,-67.9239,72.1,98,63,2.06
264,Souillac,MU,2022-04-26 07:18:01,-20.5167,57.5167,80.98,65,40,12.66
265,Pangai,TO,2022-04-26 07:18:02,-19.8,-174.35,73.62,80,100,9.22
266,Fuyang,CN,2022-04-26 07:18:02,32.9,115.8167,83.26,52,100,5.77
267,Mackay,AU,2022-04-26 07:18:03,-21.15,149.2,73.69,82,100,21.25
268,Hornepayne,CA,2022-04-26 07:18:03,49.2138,-84.7705,13.32,87,100,9.53
269,Nanchang,CN,2022-04-26 07:18:04,28.6833,115.8833,81.1,70,100,6.6
270,Los Llanos De Aridane,ES,2022-04-26 07:18:04,28.6585,-17.9182,58.75,79,20,10.0
271,La Primavera,CO,2022-04-26 07:18:05,5.4906,-70.4092,80.1,72,99,2.39
272,Axim,GH,2022-04-26 07:18:05,4.8699,-2.2405,80.17,85,90,2.73
273,Leningradskiy,RU,2022-04-26 07:18:06,69.3833,178.4167,15.84,95,82,12.62
274,Virginia Beach,US,2022-04-26 07:18:07,36.8529,-75.978,68.02,84,0,4.61
275,Abu Zabad,SD,2022-04-26 07:18:07,12.35,29.25,88.02,41,100,14.76
276,Calbuco,CL,2022-04-26 07:19:08,-41.768,-73.1273,47.41,80,9,17.52
277,Emba,KZ,2022-04-26 07:19:08,48.8264,58.1442,61.54,28,1,3.2
278,Labuan,MY,2022-04-26 07:19:09,5.2767,115.2417,88.16,70,20,4.61
279,Toropets,RU,2022-04-26 07:14:44,56.4978,31.6353,44.35,84,100,6.2
280,Catuday,PH,2022-04-26 07:19:11,16.2923,119.8062,86.22,63,8,12.71
281,Victoria,HK,2022-04-26 07:16:26,22.2855,114.1577,86.97,75,3,11.01
282,Moerai,PF,2022-04-26 07:19:12,-22.4333,-151.3333,79.88,81,92,13.22
283,Biak,ID,2022-04-26 07:19:13,-0.9131,122.8766,82.67,75,65,1.74
284,Umm Lajj,SA,2022-04-26 07:19:13,25.0213,37.2685,86.92,31,0,2.98
285,Khatanga,RU,2022-04-26 07:19:14,71.9667,102.5,17.56,82,100,8.59
286,Port Moresby,PG,2022-04-26 07:19:14,-9.4431,147.1797,87.22,70,40,8.05
287,Tres Lagoas,BR,2022-04-26 07:19:15,-20.7511,-51.6783,71.06,66,100,4.29
288,Copiapo,CL,2022-04-26 07:16:25,-27.3667,-70.3333,53.29,88,2,0.43
289,Tilichiki,RU,2022-04-26 07:19:16,60.4667,166.1,31.15,98,100,8.79
290,Walajapet,IN,2022-04-26 07:19:16,12.9333,79.3833,101.07,24,1,9.44
291,Byadgi,IN,2022-04-26 07:19:17,14.6833,75.4833,97.79,24,13,5.86
292,Acajutla,SV,2022-04-26 07:19:18,13.5928,-89.8275,80.08,75,67,4.7
293,Dwarka,IN,2022-04-26 07:19:18,22.2394,68.9678,88.41,51,0,13.15
294,Bud,US,2022-04-26 07:19:19,39.447,-86.1758,43.18,76,18,9.35
295,Sinegorye,RU,2022-04-26 07:19:19,62.0788,150.477,20.14,90,100,8.55
296,Binga,ZW,2022-04-26 07:19:20,-17.6203,27.3414,76.42,57,93,0.72
297,Aldan,RU,2022-04-26 07:19:20,58.6031,125.3894,32.95,57,100,7.94
298,Mwene-Ditu,CD,2022-04-26 07:19:21,-7.0,23.45,69.84,90,98,6.87
299,Pisco,PE,2022-04-26 07:19:22,-13.7,-76.2167,66.25,82,0,9.22
300,Evensk,RU,2022-04-26 07:19:22,61.95,159.2333,32.0,79,100,18.66
301,Novaya Malykla,RU,2022-04-26 07:19:23,54.2,49.95,60.4,66,100,14.76
302,Jumla,NP,2022-04-26 07:19:24,29.2747,82.1838,68.22,27,98,6.58
303,Yumen,CN,2022-04-26 07:19:24,40.2833,97.2,67.28,10,95,18.84
304,Newport,GB,2022-04-26 07:14:54,51.5877,-2.9984,47.98,81,8,10.13
305,Port Macquarie,AU,2022-04-26 07:19:25,-31.4333,152.9167,66.88,81,100,4.29
306,Carutapera,BR,2022-04-26 07:19:26,-1.195,-46.02,75.0,94,92,4.99
307,Ilulissat,GL,2022-04-26 07:19:26,69.2167,-51.1,26.62,86,100,4.61
308,Soria,ES,2022-04-26 07:19:27,41.6667,-2.6667,46.11,100,100,1.72
309,Praia Da Vitoria,PT,2022-04-26 07:19:27,38.7333,-27.0667,54.75,93,20,5.75
310,Okhotsk,RU,2022-04-26 07:19:29,59.3833,143.3,34.02,84,4,7.78
311,Dutlwe,BW,2022-04-26 07:19:30,-23.9833,23.9,65.37,26,0,8.77
312,Pachino,IT,2022-04-26 07:19:30,36.7186,15.0907,63.46,59,0,2.24
313,Northam,GB,2022-04-26 07:19:31,51.0333,-4.2167,47.61,84,6,9.53
314,Praia,CV,2022-04-26 07:19:32,14.9215,-23.5087,72.14,64,0,20.71
315,Lapua,FI,2022-04-26 07:19:32,62.9693,23.0088,41.11,70,80,10.8
316,Viedma,AR,2022-04-26 07:19:33,-40.8135,-62.9967,55.81,31,63,19.95
317,Arraial Do Cabo,BR,2022-04-26 07:20:33,-22.9661,-42.0278,74.48,83,23,12.46
318,Eureka,US,2022-04-26 07:20:34,40.8021,-124.1637,51.75,87,96,5.99
319,Luwuk,ID,2022-04-26 07:20:34,-0.9516,122.7875,84.25,81,82,1.3
320,Kropotkin,RU,2022-04-26 07:20:35,45.4375,40.5756,74.35,56,100,5.64
321,Turka,UA,2022-04-26 07:20:35,49.1541,23.0297,40.15,94,100,2.98
322,Takoradi,GH,2022-04-26 07:20:36,4.8845,-1.7554,80.19,85,99,2.64
323,Davila,PH,2022-04-26 07:20:36,18.4726,120.5763,89.58,73,9,9.04
324,Santa Isabel,BR,2022-04-26 07:20:37,-23.3156,-46.2214,65.5,97,11,2.04
325,Chlumec,CZ,2022-04-26 07:20:38,50.6997,13.9396,54.12,83,19,3.29
326,Morlaix,FR,2022-04-26 07:20:38,48.5833,-4.0,51.85,87,0,12.66
327,Srednekolymsk,RU,2022-04-26 07:20:39,67.45,153.6833,21.92,85,100,11.81
328,Show Low,US,2022-04-26 07:20:39,34.2542,-110.0298,53.15,24,0,4.61
329,Tongchuan,CN,2022-04-26 07:20:40,35.0806,109.0897,81.16,22,100,4.9
330,Tymovskoye,RU,2022-04-26 07:20:40,50.8456,142.655,34.38,91,100,7.87
331,Bucerias,MX,2022-04-26 07:20:37,20.75,-105.3333,72.99,82,0,4.16
332,Sibolga,ID,2022-04-26 07:20:41,1.7427,98.7792,80.62,87,100,4.34
333,Kohima,IN,2022-04-26 07:20:42,25.6667,94.1167,75.97,25,3,7.74
334,San Luis,AR,2022-04-26 07:20:43,-33.295,-66.3356,63.95,60,0,12.57
335,Rumonge,BI,2022-04-26 07:20:43,-3.9736,29.4386,76.64,75,82,2.86
336,Urumqi,CN,2022-04-26 07:20:44,43.801,87.6005,56.35,63,75,6.71
337,Mitsamiouli,KM,2022-04-26 07:20:44,-11.3847,43.2844,86.29,66,20,5.75
338,Hualmay,PE,2022-04-26 07:20:45,-11.0964,-77.6139,66.45,88,100,7.9
339,Charleston,US,2022-04-26 07:20:46,32.7766,-79.9309,68.02,94,0,5.75
340,Usinsk,RU,2022-04-26 07:20:46,65.9939,57.5281,37.4,99,100,10.49
341,Isla Mujeres,MX,2022-04-26 07:20:47,21.2311,-86.731,77.16,82,1,12.39
342,Otradnoye,RU,2022-04-26 07:20:48,59.7775,30.8181,49.96,74,33,7.43
343,Bambari,CF,2022-04-26 07:20:48,5.768,20.6757,80.92,68,100,5.1
344,Nishihara,JP,2022-04-26 07:20:49,26.1842,127.7558,85.66,83,75,16.11
345,Aktash,RU,2022-04-26 07:20:49,50.3,87.7333,34.23,43,99,6.8
346,Vicuna,CL,2022-04-26 07:20:50,-30.0319,-70.7081,47.93,77,0,0.49
347,Puerto Madryn,AR,2022-04-26 07:20:51,-42.7692,-65.0385,58.37,41,100,28.27
348,Nizwa,OM,2022-04-26 07:20:51,22.9333,57.5333,92.37,23,6,8.5
349,Kathu,TH,2022-04-26 07:20:52,7.9178,98.3332,85.82,72,78,5.39
350,Maiduguri,NG,2022-04-26 07:20:52,11.8464,13.1603,89.92,42,50,14.16
351,Mwinilunga,ZM,2022-04-26 07:20:53,-11.7358,24.4293,68.85,72,56,8.12
352,Kohtla-Jarve,EE,2022-04-26 07:17:50,59.3986,27.2731,40.5,81,12,12.95
353,Airai,TL,2022-04-26 07:20:54,-8.9266,125.4092,72.77,53,100,1.88
354,Vardo,NO,2022-04-26 07:20:55,70.3705,31.1107,22.98,68,40,21.85
355,Mayumba,GA,2022-04-26 07:20:55,-3.432,10.6554,78.62,88,100,6.71
356,Belmonte,BR,2022-04-26 07:20:56,-15.8631,-38.8828,75.79,83,23,5.28
357,Rosetta,EG,2022-04-26 07:20:56,31.4044,30.4164,69.49,58,100,7.56
358,Port Lincoln,AU,2022-04-26 07:20:57,-34.7333,135.8667,64.0,80,88,13.44
359,Sisimiut,GL,2022-04-26 07:20:57,66.9395,-53.6735,28.18,90,100,11.88
360,Menongue,AO,2022-04-26 07:20:58,-14.6585,17.691,68.31,58,76,4.79
361,Muisne,EC,2022-04-26 07:20:58,0.6,-80.0333,76.95,89,100,8.93
362,Lerwick,GB,2022-04-26 07:20:59,60.1545,-1.1494,44.6,62,100,17.43
363,Odienne,CI,2022-04-26 07:22:00,9.51,-7.5692,76.12,50,100,2.91
364,Novyy Urengoy,RU,2022-04-26 07:22:01,66.0833,76.6333,26.6,88,98,10.31
365,Saint-Francois,FR,2022-04-26 07:22:01,46.4154,3.9054,49.44,93,100,5.75
366,Khilok,RU,2022-04-26 07:22:02,51.3674,110.4676,38.95,26,100,10.0
367,Esna,EG,2022-04-26 07:22:02,25.2934,32.554,88.23,15,0,4.14
368,Sao Jose Da Coroa Grande,BR,2022-04-26 07:22:03,-8.8978,-35.1478,77.88,80,73,10.6
369,Bara,NG,2022-04-26 07:22:03,10.3744,10.7288,78.58,52,100,13.91
370,Cayenne,GF,2022-04-26 07:18:39,4.9333,-52.3333,76.08,1,100,1.14
371,Broome,US,2022-04-26 07:21:17,42.2506,-75.833,56.37,76,100,10.36
372,Clarence Town,AU,2022-04-26 07:22:04,-32.5833,151.7833,66.85,93,100,3.38
373,Natal,BR,2022-04-26 07:18:20,-5.795,-35.2094,75.42,100,20,5.75
374,Ribeira Brava,PT,2022-04-26 07:22:05,32.65,-17.0667,60.71,71,13,7.09
375,Hidalgo,MX,2022-04-26 07:22:06,20.5,-99.0,61.18,86,13,6.31
376,Raton,US,2022-04-26 07:17:29,36.9034,-104.4391,38.01,72,0,8.05
377,Riyadh,SA,2022-04-26 07:19:53,24.6877,46.7219,82.54,27,5,11.05
378,Balaka,MW,2022-04-26 07:22:07,-14.9793,34.9558,74.53,70,37,5.73
379,Fayaoue,NC,2022-04-26 07:22:08,-20.65,166.5333,77.41,58,92,20.65
380,San Rafael,AR,2022-04-26 07:22:09,-34.6177,-68.3301,55.22,46,0,5.57
381,Ust-Charyshskaya Pristan,RU,2022-04-26 07:22:09,52.3934,83.6635,53.98,34,60,4.0
382,Arzgir,RU,2022-04-26 07:22:10,45.3728,44.2206,72.54,38,11,13.09
383,Stawell,AU,2022-04-26 07:22:11,-37.05,142.7667,64.29,59,100,7.99
384,Izumo,JP,2022-04-26 07:20:05,35.3667,132.7667,69.75,94,75,18.41
385,Belaya Gora,RU,2022-04-26 07:22:11,68.5333,146.4167,22.82,77,100,3.0
386,Bosaso,SO,2022-04-26 07:22:12,11.2842,49.1816,85.98,84,0,8.05
387,Semey,KZ,2022-04-26 07:22:13,50.4111,80.2275,57.42,23,0,11.18
388,Verkhnyaya Inta,RU,2022-04-26 07:22:13,65.9811,60.3094,39.04,86,97,11.92
389,Hidalgotitlan,MX,2022-04-26 07:22:14,17.7833,-94.6333,78.66,81,100,6.29
390,Bonthe,SL,2022-04-26 07:22:14,7.5264,-12.505,78.73,89,100,8.52
391,Rawson,AR,2022-04-26 07:20:50,-43.3002,-65.1023,58.95,42,100,27.83
392,Sabang,ID,2022-04-26 07:22:15,5.8933,95.3214,83.14,75,96,20.94
393,Russell,US,2022-04-26 07:22:16,32.3502,-85.1999,70.75,78,75,6.91
394,Cacequi,BR,2022-04-26 07:22:16,-29.8836,-54.825,63.93,98,84,15.21
395,Clyde River,CA,2022-04-26 07:22:17,70.4692,-68.5914,8.83,92,100,32.21
396,Qasigiannguit,GL,2022-04-26 07:22:17,68.8193,-51.1922,26.85,84,100,6.13
397,Yerbogachen,RU,2022-04-26 07:22:18,61.2767,108.0108,36.0,68,100,6.04
398,Fitchburg,US,2022-04-26 07:18:47,42.5834,-71.8023,49.15,77,83,5.64
399,Shingu,JP,2022-04-26 07:22:19,33.7333,135.9833,72.86,91,90,14.74
400,Noumea,NC,2022-04-26 07:22:20,-22.2763,166.4572,75.99,99,100,11.39
401,Birao,CF,2022-04-26 07:22:20,10.2849,22.7882,88.66,42,100,7.23
402,Balilihan,PH,2022-04-26 07:22:21,9.7561,123.973,83.39,80,100,9.17
403,Husavik,IS,2022-04-26 07:22:21,66.0449,-17.3389,40.75,84,100,5.99
404,Kutum,SD,2022-04-26 07:22:22,14.2,24.6667,88.16,9,98,4.45
405,Vangaindrano,MG,2022-04-26 07:22:22,-23.35,47.6,76.21,76,4,7.7
406,Bangassou,CF,2022-04-26 07:22:23,4.7413,22.8184,80.24,70,94,2.73
407,Boguchany,RU,2022-04-26 07:22:24,58.3814,97.4531,37.09,98,100,7.25
408,Whitecourt,CA,2022-04-26 07:23:24,54.1502,-115.6855,42.17,84,53,5.21
409,Kidal,ML,2022-04-26 07:23:25,18.4411,1.4078,77.67,18,0,9.95
410,Hammerfest,NO,2022-04-26 07:23:25,70.6634,23.6821,21.65,86,100,8.05
411,South Lake Tahoe,US,2022-04-26 07:23:26,38.9332,-119.9844,47.26,63,0,1.01
412,Diu,IN,2022-04-26 07:23:26,20.7141,70.9822,97.09,34,4,6.76
413,Saint-Augustin,CA,2022-04-26 07:23:27,51.226,-58.6502,32.54,98,100,5.17
414,Havoysund,NO,2022-04-26 07:23:28,70.9963,24.6622,23.23,67,100,27.58
415,Jitauna,BR,2022-04-26 07:23:28,-14.0189,-39.8889,69.94,99,100,1.77
416,Mayo,US,2022-04-26 07:23:29,38.8876,-76.5119,59.25,92,100,4.61
417,Makat,KZ,2022-04-26 07:23:29,47.6469,53.3463,70.66,28,0,13.09
418,Casma,CL,2022-04-26 07:23:30,-41.0082,-73.1244,47.48,95,90,3.87
419,Komsomolskiy,UZ,2022-04-26 07:23:31,40.4272,71.7189,74.12,38,100,2.3
420,Buala,SB,2022-04-26 07:23:31,-8.145,159.5921,82.58,78,45,3.33
421,Bemidji,US,2022-04-26 07:18:57,47.4736,-94.8803,23.9,87,100,5.75
422,Mahibadhoo,MV,2022-04-26 07:23:32,3.7833,72.9667,84.49,68,90,3.02
423,Port Hedland,AU,2022-04-26 07:19:22,-20.3167,118.5667,93.25,33,98,12.66
424,Drochia,MD,2022-04-26 07:23:33,48.035,27.8161,59.63,59,11,8.7
425,Oriximina,BR,2022-04-26 07:23:34,-1.7656,-55.8661,73.18,95,72,3.0
426,Ziro,IN,2022-04-26 07:23:34,27.6333,93.8333,61.54,57,27,3.29
427,Odate,JP,2022-04-26 07:23:35,40.2686,140.5683,69.94,68,75,3.44
428,Yeovil,GB,2022-04-26 07:23:36,50.9416,-2.6321,47.57,91,20,5.99
429,Massakory,TD,2022-04-26 07:23:36,12.996,15.7293,93.34,34,100,10.51
430,Khorixas,NA,2022-04-26 07:23:37,-20.3667,14.9667,74.93,32,3,7.34
431,Dungarpur,IN,2022-04-26 07:23:37,23.8333,73.7167,101.37,10,0,1.16
432,Sigli,ID,2022-04-26 07:23:38,5.3848,95.9609,84.69,71,100,2.39
433,Manicore,BR,2022-04-26 07:23:38,-5.8092,-61.3003,73.11,97,71,2.3
434,Ambon,ID,2022-04-26 07:23:39,-3.6954,128.1814,82.54,83,40,3.44
435,Lardos,GR,2022-04-26 07:23:40,36.0942,28.0157,67.82,60,100,2.15
436,Sioux Lookout,CA,2022-04-26 07:23:40,50.1001,-91.917,15.87,92,100,5.75
437,Henties Bay,NA,2022-04-26 07:23:41,-22.116,14.2845,61.81,76,0,5.64
438,Kouqian,CN,2022-04-26 07:23:42,43.6391,126.4578,58.26,23,5,23.38
439,Aquiraz,BR,2022-04-26 07:23:42,-3.9014,-38.3911,78.89,92,69,10.8
440,Igrim,RU,2022-04-26 07:23:43,63.1906,64.4162,36.61,100,100,6.76
441,Ambilobe,MG,2022-04-26 07:23:44,-13.2,49.05,83.68,61,10,6.6
442,Kameno,BG,2022-04-26 07:23:44,42.5667,27.3,71.89,61,20,12.66
443,Lakes Entrance,AU,2022-04-26 07:23:45,-37.8811,147.981,63.16,87,91,9.71
444,Macenta,GN,2022-04-26 07:23:45,8.5435,-9.471,69.55,97,99,0.36
445,Sungairaya,ID,2022-04-26 07:23:46,0.7,108.9,86.92,64,93,7.23
446,Kaeo,NZ,2022-04-26 07:23:47,-35.1,173.7833,62.33,85,86,1.36
447,Constantine,DZ,2022-04-26 07:23:47,36.365,6.6147,60.21,63,0,2.3
448,Nirmal,IN,2022-04-26 07:23:48,19.1,78.35,107.64,9,0,8.61
449,Cozumel,MX,2022-04-26 07:22:57,20.5083,-86.9458,74.95,90,0,10.02
450,Killybegs,IE,2022-04-26 07:23:49,54.6333,-8.45,47.91,82,35,9.15
451,Clovis,US,2022-04-26 07:22:32,36.8252,-119.7029,67.89,52,40,11.5
452,Half Moon Bay,US,2022-04-26 07:24:50,37.4636,-122.4286,55.87,80,0,21.85
453,Cherepovets,RU,2022-04-26 07:21:04,59.1333,37.9,44.42,93,100,11.18
454,Adrar,MR,2022-04-26 07:24:51,20.5022,-10.0711,67.01,43,0,10.09
455,Raga,SS,2022-04-26 07:24:51,8.4596,25.678,86.23,47,100,5.44
456,Katsuura,JP,2022-04-26 07:24:52,35.1333,140.3,71.62,88,100,25.23
457,Grong,NO,2022-04-26 07:22:20,64.4654,12.3149,31.28,75,88,8.05
458,Sao Joao Da Barra,BR,2022-04-26 07:24:53,-21.6403,-41.0511,71.78,89,3,4.54
459,Asyut,EG,2022-04-26 07:24:53,27.181,31.1837,87.12,22,2,6.55
460,Buin,CL,2022-04-26 07:24:54,-33.7333,-70.75,60.73,90,100,0.94
461,Laguna,US,2022-04-26 07:21:19,38.421,-121.4238,60.46,69,13,1.99
462,Iisalmi,FI,2022-04-26 07:24:55,63.5592,27.1907,33.69,96,100,11.21
463,Esperantinopolis,BR,2022-04-26 07:24:55,-4.8667,-44.7083,71.2,97,55,1.99
464,Bathsheba,BB,2022-04-26 07:24:56,13.2167,-59.5167,77.61,94,75,14.97
465,Mantua,IT,2022-04-26 07:21:56,45.1667,10.7833,57.34,84,73,5.99
466,Inuvik,CA,2022-04-26 07:24:57,68.3499,-133.7218,22.06,93,75,8.05
467,San Andres,CO,2022-04-26 07:24:57,12.5847,-81.7006,80.62,83,20,13.8
468,Halifax,CA,2022-04-26 07:20:32,44.6453,-63.5724,44.69,89,99,1.99
469,Ust-Nera,RU,2022-04-26 07:24:58,64.5667,143.2,26.01,72,98,4.25
470,Port-Cartier,CA,2022-04-26 07:24:59,50.0334,-66.8654,35.82,99,100,9.01
471,Maracas,BR,2022-04-26 07:24:59,-13.4411,-40.4308,63.32,85,81,4.99
472,General Roca,AR,2022-04-26 07:25:00,-39.0333,-67.5833,55.62,41,97,12.8
473,Sault Sainte Marie,CA,2022-04-26 07:21:28,46.5168,-84.3333,34.09,79,100,18.41
474,Villa Maria,AR,2022-04-26 07:25:01,-32.4075,-63.2402,61.65,94,0,4.79
475,Vila,PT,2022-04-26 07:25:01,42.0304,-8.1588,45.48,92,80,2.75
476,Kovdor,RU,2022-04-26 07:25:02,67.5662,30.4758,27.9,73,100,15.28
477,Ilo,PE,2022-04-26 07:25:02,-17.6394,-71.3375,66.16,84,100,6.69
478,Aswan,EG,2022-04-26 07:25:03,24.0934,32.907,90.19,16,0,6.67
479,Lolodorf,CM,2022-04-26 07:25:03,3.2333,10.7333,73.78,95,99,1.43
480,Onega,RU,2022-04-26 07:25:04,63.9061,38.1404,35.92,96,100,6.71
481,Nchelenge,ZM,2022-04-26 07:25:04,-9.3451,28.734,71.04,80,100,6.29
482,Kabinda,CD,2022-04-26 07:25:05,-6.1333,24.4833,73.9,79,100,3.15
483,Prince Rupert,CA,2022-04-26 07:20:08,54.3161,-130.3201,44.29,87,75,10.36
484,Chicama,PE,2022-04-26 07:25:06,-7.8447,-79.1469,59.54,87,99,4.34
485,Adre,TD,2022-04-26 07:25:06,13.4667,22.2,91.56,27,100,10.78
486,Ushtobe,KZ,2022-04-26 07:25:07,45.2514,77.9838,60.44,37,0,8.39
487,George Town,MY,2022-04-26 07:20:40,5.4112,100.3354,91.35,69,20,8.05
488,Caridad,PH,2022-04-26 07:25:08,10.8315,124.7518,81.5,84,100,11.41
489,Fiumicino,IT,2022-04-26 07:25:08,41.7675,12.2291,65.01,73,0,5.75
490,Port Pirie,AU,2022-04-26 07:25:09,-33.1833,138.0167,66.29,77,100,8.59
491,Tiznit,MA,2022-04-26 07:25:09,29.5833,-9.5,54.23,90,89,6.55
492,Saquena,PE,2022-04-26 07:25:10,-4.6667,-73.5167,71.56,99,91,1.61
493,Peniche,PT,2022-04-26 07:25:10,39.3558,-9.3811,58.28,94,18,7.2
494,Kushiro,JP,2022-04-26 07:25:11,42.975,144.3747,47.35,100,100,3.44
495,Taksimo,RU,2022-04-26 07:24:14,56.3444,114.8794,36.64,37,100,5.03
496,Constitucion,CL,2022-04-26 07:25:12,-35.3333,-72.4167,55.87,84,100,15.28
497,Saint-Pierre,RE,2022-04-26 07:25:12,-21.3393,55.4781,82.08,61,0,25.32
498,Waddan,LY,2022-04-26 07:26:13,29.1614,16.139,73.18,30,0,11.95
499,Belica,BG,2022-04-26 07:26:13,41.9569,23.5725,60.26,52,0,2.46
500,Okitipupa,NG,2022-04-26 07:26:14,6.5047,4.7839,79.63,89,97,3.15
501,Tecpan,GT,2022-04-26 07:26:15,14.7623,-90.9947,52.9,92,25,1.1
502,Jalu,LY,2022-04-26 07:26:15,29.0331,21.5482,80.98,18,36,15.41
503,Erice,IT,2022-04-26 07:26:16,38.037,12.5865,62.37,72,0,3.44
504,Barra Do Garcas,BR,2022-04-26 07:26:16,-15.89,-52.2567,71.65,80,25,1.97
505,Tessalit,ML,2022-04-26 07:26:17,20.1986,1.0114,74.19,18,0,4.45
506,Qaqortoq,GL,2022-04-26 07:26:17,60.7167,-46.0333,32.99,94,100,7.72
507,Doka,SD,2022-04-26 07:26:18,13.5167,35.7667,91.78,21,100,14.65
508,Diffa,NE,2022-04-26 07:26:19,13.3154,12.6113,90.55,38,9,16.04
509,Tatawin,TN,2022-04-26 07:26:19,32.9297,10.4518,64.98,60,100,11.3
510,Ambanja,MG,2022-04-26 07:26:20,-13.6833,48.45,85.93,65,10,1.68
511,Wundanyi,KE,2022-04-26 07:26:20,-3.4019,38.364,72.72,55,26,2.33
512,Jinchang,CN,2022-04-26 07:26:21,38.4953,102.1739,67.68,18,9,9.26
513,Loa Janan,ID,2022-04-26 07:26:21,-0.583,117.095,80.74,86,100,1.59
514,La Ronge,CA,2022-04-26 07:26:22,55.1001,-105.2842,25.05,46,0,9.22
515,Mamit,IN,2022-04-26 07:26:22,23.9333,92.4833,92.23,43,20,5.75
516,Bachaquero,VE,2022-04-26 07:26:23,9.9694,-71.1494,78.28,83,96,1.34
517,Namatanai,PG,2022-04-26 07:26:23,-3.6667,152.4333,83.14,71,9,7.81
518,Sharkan,RU,2022-04-26 07:26:24,57.2989,53.8712,57.85,72,100,15.75
519,Thanh Hoa,VN,2022-04-26 07:26:24,19.8,105.7667,92.52,54,8,12.1
520,Ahipara,NZ,2022-04-26 07:26:25,-35.1667,173.1667,61.07,80,58,7.25
521,Necochea,AR,2022-04-26 07:25:07,-38.5473,-58.7368,51.84,68,98,7.85
522,Manadhoo,MV,2022-04-26 07:26:26,5.7667,73.3833,84.94,69,36,4.52
523,Dubti,ET,2022-04-26 07:26:27,11.7361,41.0853,90.57,38,97,5.75
524,Deputatskiy,RU,2022-04-26 07:26:27,69.3,139.9,16.45,85,100,2.55
525,Meulaboh,ID,2022-04-26 07:26:28,4.1363,96.1285,76.01,92,100,2.17
526,Korla,CN,2022-04-26 07:26:28,41.7597,86.1469,70.52,14,100,12.19
527,Ugrinovci,RS,2022-04-26 07:26:29,44.8783,20.1869,63.97,71,0,6.91
528,Stornoway,GB,2022-04-26 07:26:30,58.2093,-6.3865,44.92,91,75,9.22
529,Mufumbwe,ZM,2022-04-26 07:26:30,-13.6833,24.8,70.32,65,63,6.69
530,Wajima,JP,2022-04-26 07:26:31,37.4,136.9,65.08,94,75,4.61
531,Bonavista,CA,2022-04-26 07:26:31,48.6499,-53.1147,34.97,93,100,10.76
532,Pitimbu,BR,2022-04-26 07:26:32,-7.4706,-34.8086,73.99,76,63,9.37
533,Gravdal,NO,2022-04-26 07:26:32,68.1214,13.5031,30.09,59,40,13.8
534,Xiongzhou,CN,2022-04-26 07:26:33,25.1167,114.3,87.53,63,55,8.16
535,Svetlogorsk,BY,2022-04-26 07:26:33,52.6333,29.7333,50.85,90,100,8.79
536,Birjand,IR,2022-04-26 07:26:34,32.8663,59.2211,88.27,9,40,13.8
537,Altamira,BR,2022-04-26 07:26:34,-3.2033,-52.2064,70.48,99,53,1.97
538,Ust-Tsilma,RU,2022-04-26 07:26:35,65.441,52.1498,38.19,95,100,9.66
539,Solnechnyy,RU,2022-04-26 07:26:35,50.7214,136.6319,33.06,99,100,7.7
540,Beringovskiy,RU,2022-04-26 07:26:36,63.05,179.3167,31.89,99,100,13.89
541,Mvuma,ZW,2022-04-26 07:26:36,-19.2792,30.5283,67.42,66,5,10.36
542,Pangnirtung,CA,2022-04-26 07:26:37,66.1451,-65.7125,-12.6,100,96,1.7
543,Cap Malheureux,MU,2022-04-26 07:26:38,-19.9842,57.6142,81.46,62,0,8.99
544,Dukat,RU,2022-04-26 07:27:38,62.55,155.55,19.92,93,100,6.29
545,Hovd,MN,2022-04-26 07:23:32,48.0056,91.6419,41.7,23,100,6.17
546,Itarema,BR,2022-04-26 07:27:39,-2.9248,-39.9167,75.92,90,100,10.89
547,Batagay,RU,2022-04-26 07:27:39,67.6333,134.6333,26.4,72,92,2.95
548,Los Algarrobos,PA,2022-04-26 07:27:40,8.5,-82.4333,74.35,89,80,2.13
549,Gigmoto,PH,2022-04-26 07:27:41,13.7796,124.39,84.74,75,77,9.84
550,Dubasari,MD,2022-04-26 07:27:41,47.2631,29.1608,63.39,57,0,8.72
551,Zeerust,ZA,2022-04-26 07:27:42,-25.5369,26.0751,61.16,24,0,4.29
552,Okato,NZ,2022-04-26 07:27:42,-39.2,173.8833,59.18,83,77,4.0
553,Conde,BR,2022-04-26 07:27:42,-7.2597,-34.9075,72.86,100,40,2.3
554,Khani,GE,2022-04-26 07:27:43,41.9563,42.9566,71.17,37,0,3.96
555,Bintulu,MY,2022-04-26 07:27:27,3.1667,113.0333,91.81,58,40,6.91
556,Manzhouli,CN,2022-04-26 07:27:44,49.6,117.4333,45.05,26,100,20.27
557,Beaverlodge,CA,2022-04-26 07:27:44,55.2166,-119.4361,36.75,83,89,6.93
558,Nome,US,2022-04-26 07:23:07,64.5011,-165.4064,32.07,86,0,6.91
559,Numan,NG,2022-04-26 07:27:45,9.4667,12.0333,86.74,51,100,10.58
560,Novyy Svit,UA,2022-04-26 07:27:46,47.8059,38.0211,68.29,55,96,3.24
561,Fez,MA,2022-04-26 07:27:46,34.0372,-4.9998,55.65,100,40,2.3
562,Kaputa,ZM,2022-04-26 07:27:47,-8.4689,29.6619,72.34,82,72,3.91
563,Cherskiy,RU,2022-04-26 07:27:47,68.75,161.3,26.76,86,100,7.07
564,San Juan De Uraba,CO,2022-04-26 07:27:48,8.7592,-76.5297,77.56,86,63,2.57
565,San Quintin,MX,2022-04-26 07:27:48,30.4833,-115.95,60.58,77,6,6.26
566,Duluth,US,2022-04-26 07:27:05,46.7833,-92.1066,27.55,73,100,16.11
567,Manakara,MG,2022-04-26 07:27:49,-22.1333,48.0167,77.92,72,3,7.36
568,Nizhniy Odes,RU,2022-04-26 07:27:50,63.6445,54.856,40.64,95,100,11.03
569,Malanje,AO,2022-04-26 07:27:50,-9.5402,16.341,68.16,85,100,4.0
570,Bajil,YE,2022-04-26 07:27:51,15.0584,43.2851,92.34,40,15,5.39
571,Kawalu,ID,2022-04-26 07:27:51,-7.3817,108.2082,84.49,70,100,1.52
572,Neuquen,AR,2022-04-26 07:25:21,-38.9516,-68.0591,46.29,81,0,3.44
573,Slave Lake,CA,2022-04-26 07:27:52,55.2834,-114.769,42.78,52,0,11.5
574,Whitefish,US,2022-04-26 07:27:53,48.4111,-114.3376,47.41,74,20,5.75
575,Khor,RU,2022-04-26 07:27:53,47.8861,134.9464,42.35,97,100,6.33
576,Kirishi,RU,2022-04-26 07:27:54,59.4471,32.0205,40.55,95,100,4.54
577,Gondanglegi,ID,2022-04-26 07:27:55,-7.7479,112.0132,85.91,73,96,8.21
578,Zhongshu,CN,2022-04-26 07:27:56,24.5167,103.7667,85.93,18,0,11.88
579,Soyo,AO,2022-04-26 07:27:57,-6.1349,12.3689,78.89,85,100,3.85
580,Mbuji-Mayi,CD,2022-04-26 07:27:57,-6.15,23.6,72.95,89,100,2.59
581,Choix,MX,2022-04-26 07:27:58,26.7092,-108.3219,69.98,25,0,3.96
582,Gniezno,PL,2022-04-26 07:27:59,52.5348,17.5826,50.9,67,14,6.26
583,Esqueda,MX,2022-04-26 07:28:00,30.7167,-109.5833,61.59,18,3,6.62
584,Vrangel,RU,2022-04-26 07:28:01,42.7297,133.0839,49.35,85,33,12.75
585,Novoseleznevo,RU,2022-04-26 07:28:02,55.6821,69.2056,57.51,47,6,10.38
586,Shimoda,JP,2022-04-26 07:28:02,34.6667,138.95,71.96,94,100,18.68
587,Tanout,NE,2022-04-26 07:28:03,14.9709,8.8879,85.21,8,86,12.01
588,Donskoye,RU,2022-04-26 07:28:03,45.4552,41.9741,77.13,52,74,10.0
589,Gobabis,NA,2022-04-26 07:28:04,-22.45,18.9667,64.44,46,4,15.17
590,Ceres,US,2022-04-26 07:24:39,37.5949,-120.9577,61.12,63,0,6.91
591,Gazanjyk,TM,2022-04-26 07:29:05,39.2446,55.5154,78.3,19,100,24.74
592,Puerto Quijarro,BO,2022-04-26 07:29:05,-17.7833,-57.7667,75.88,74,99,2.42
593,Churapcha,RU,2022-04-26 07:29:06,62.0025,132.4325,31.01,64,100,7.9
594,Ojinaga,MX,2022-04-26 07:29:06,29.5667,-104.4167,65.41,67,0,18.41
595,Alice Springs,AU,2022-04-26 07:28:40,-23.7,133.8833,80.15,28,56,3.44
596,Oistins,BB,2022-04-26 07:29:07,13.0667,-59.5333,77.09,94,75,14.97
597,Zaozerne,UA,2022-04-26 07:29:07,45.1582,33.2787,58.48,66,8,4.7
598,Pushkinskiye Gory,RU,2022-04-26 07:29:08,57.0209,28.9103,47.77,62,66,7.18
599,Pacific Grove,US,2022-04-26 07:29:08,36.6177,-121.9166,55.08,87,0,8.99
600,Bayir,TR,2022-04-26 07:29:08,37.2687,28.2167,61.32,33,100,2.26
601,Karpathos,GR,2022-04-26 07:29:09,35.507,27.2132,49.96,100,0,14.97
602,Gawler,AU,2022-04-26 07:29:09,-34.6,138.7333,67.51,72,100,14.43
603,Cepelare,BG,2022-04-26 07:29:10,41.7333,24.6833,54.79,58,0,2.53
604,Lodja,CD,2022-04-26 07:29:10,-3.4833,23.4333,71.51,98,100,1.41
605,Namibe,AO,2022-04-26 07:29:10,-15.1961,12.1522,74.32,65,46,4.74
606,Takhatgarh,IN,2022-04-26 07:29:11,25.3333,73.0,104.25,11,0,13.31
607,Tabas,IR,2022-04-26 07:29:12,33.5959,56.9244,91.62,16,100,4.61
608,Popondetta,PG,2022-04-26 07:29:12,-8.7537,148.2534,83.61,73,16,4.41
609,Colares,PT,2022-04-26 07:29:13,38.7992,-9.4469,60.3,85,75,14.0
610,Yar-Sale,RU,2022-04-26 07:25:06,66.8333,70.8333,30.67,86,56,4.25
611,Beibei,CN,2022-04-26 07:29:13,29.8256,106.4339,87.37,47,10,2.64
612,Payson,US,2022-04-26 07:29:14,40.0444,-111.7321,53.26,41,0,3.0
613,Portlethen,GB,2022-04-26 07:29:14,57.0547,-2.1307,45.77,92,75,6.91
614,Byron Bay,AU,2022-04-26 07:29:15,-28.65,153.6167,69.69,78,100,7.47
615,Kaman,IN,2022-04-26 07:25:34,27.65,77.2667,106.88,8,0,7.61
616,Mizan Teferi,ET,2022-04-26 07:29:15,6.9833,35.5833,74.01,54,100,1.54
617,Moyale,KE,2022-04-26 07:29:16,3.5167,39.0584,74.62,66,100,3.53
618,Puri,IN,2022-04-26 07:29:16,19.8,85.85,97.32,74,1,15.3
619,Nova Granada,BR,2022-04-26 07:29:17,-20.5339,-49.3142,73.65,74,0,5.46
620,Cuiluan,CN,2022-04-26 07:29:17,47.72,128.648,51.15,49,89,16.24
621,Cockburn Town,TC,2022-04-26 07:29:18,21.4612,-71.1419,76.21,72,41,18.79
622,Muzhi,RU,2022-04-26 07:29:18,65.3667,64.6667,33.17,100,100,8.81
623,Reconquista,AR,2022-04-26 07:26:03,-29.15,-59.65,71.2,96,1,9.31
624,Bocanda,CI,2022-04-26 07:29:19,7.0626,-4.4995,75.69,86,84,3.11
625,Kilindoni,TZ,2022-04-26 07:29:19,-7.9139,39.6668,76.82,94,100,8.12
626,Aloleng,PH,2022-04-26 07:29:20,16.1307,119.7824,87.94,63,12,11.43
627,Megion,RU,2022-04-26 07:29:21,61.0296,76.1136,44.62,100,100,2.95
628,Bowen,AU,2022-04-26 07:29:21,-20.0167,148.2333,74.84,87,100,20.87
629,Christchurch,NZ,2022-04-26 07:25:41,-43.5333,172.6333,55.94,78,100,8.05
630,Kununurra,AU,2022-04-26 07:25:30,-15.7667,128.7333,94.98,28,11,6.91
631,Sambava,MG,2022-04-26 07:29:22,-14.2667,50.1667,77.88,83,57,8.05
632,Belinskiy,RU,2022-04-26 07:29:22,52.9647,43.4165,65.35,60,23,14.81
633,Vaitape,PF,2022-04-26 07:29:22,-16.5167,-151.75,82.2,72,100,14.29
634,Slawno,PL,2022-04-26 07:29:23,54.3628,16.6789,48.92,60,13,8.34
635,Trincomalee,LK,2022-04-26 07:29:23,8.5711,81.2335,83.91,73,1,8.86
636,Padang,ID,2022-04-26 07:29:24,-0.9492,100.3543,87.85,65,100,6.53
637,Kashi,CN,2022-04-26 07:29:24,39.4547,75.9797,74.41,16,40,6.71
638,Attock,PK,2022-04-26 07:29:25,33.7695,72.3611,95.4,17,8,6.02
639,Chiapa,MX,2022-04-26 07:30:25,18.4669,-96.945,60.33,94,90,2.06
640,Taltal,CL,2022-04-26 07:30:26,-25.4,-70.4833,61.27,85,100,2.24
641,Vanimo,PG,2022-04-26 07:30:26,-2.6741,141.3028,83.05,78,6,7.36
642,Mujiayingzi,CN,2022-04-26 07:30:27,42.1167,118.7833,53.35,14,0,29.12
643,Zaraza,VE,2022-04-26 07:30:27,9.3503,-65.3245,76.64,84,97,6.22
644,Hambantota,LK,2022-04-26 07:30:28,6.1241,81.1185,91.74,70,40,3.44
645,Zemio,CF,2022-04-26 07:30:28,5.0314,25.1361,81.64,61,100,4.97
646,Tahe,CN,2022-04-26 07:30:29,52.3333,124.7333,45.79,21,100,12.77
647,Vestmanna,FO,2022-04-26 07:30:29,62.1564,-7.1664,38.32,70,75,4.61
648,Sibundoy,CO,2022-04-26 07:30:30,1.2048,-76.9237,52.23,94,60,1.79
649,Maniitsoq,GL,2022-04-26 07:30:30,65.4167,-52.9,28.11,95,100,19.91
650,Palwal,IN,2022-04-26 07:30:31,28.15,77.3333,108.18,7,0,12.01
651,Wanning,CN,2022-04-26 07:30:31,18.8003,110.3967,86.11,70,5,15.5
652,Monforte De Lemos,ES,2022-04-26 07:30:32,42.5216,-7.5142,55.56,75,95,0.87
653,Russkaya Polyana,UA,2022-04-26 07:30:32,49.417,31.9201,61.97,65,25,13.73
654,Palmer,US,2022-04-26 07:30:33,42.1584,-72.3287,50.61,43,100,5.75
655,Yaan,NG,2022-04-26 07:30:33,7.3833,8.5667,82.29,71,99,8.97
656,Kindu,CD,2022-04-26 07:30:34,-2.95,25.95,72.88,95,100,3.36
657,Beidao,CN,2022-04-26 07:30:34,34.5686,105.8933,76.41,33,100,8.16
658,Ferme-Neuve,CA,2022-04-26 07:30:35,46.7001,-75.4493,46.24,96,100,7.49
659,Sosnovo-Ozerskoye,RU,2022-04-26 07:30:35,52.5249,111.5418,36.77,27,100,15.86
660,Imola,IT,2022-04-26 07:30:36,44.3523,11.7158,64.62,59,10,7.83
661,Santo Antonio Do Amparo,BR,2022-04-26 07:30:37,-20.9464,-44.9189,59.36,96,0,3.0
662,Jiuquan,CN,2022-04-26 07:30:37,39.7432,98.5174,68.68,14,77,7.63
663,Livingstone,ZM,2022-04-26 07:30:38,-17.8419,25.8543,80.22,42,12,6.96
664,East Wenatchee,US,2022-04-26 07:30:38,47.4157,-120.2931,50.05,55,0,14.97
665,Marakkanam,IN,2022-04-26 07:30:39,12.2,79.95,95.34,56,3,12.97
666,Phetchabun,TH,2022-04-26 07:30:39,16.25,101.0833,95.27,33,64,6.08
667,Houma,US,2022-04-26 07:30:40,29.5958,-90.7195,69.01,92,0,5.75
668,Tandil,AR,2022-04-26 07:28:26,-37.3217,-59.1332,49.68,84,6,6.58
669,Zhezkazgan,KZ,2022-04-26 07:30:41,47.8043,67.7144,58.98,47,40,6.71
670,Sistranda,NO,2022-04-26 07:30:41,63.7256,8.834,39.16,57,100,18.05
671,Goderich,CA,2022-04-26 07:30:16,43.7501,-81.7165,41.92,81,54,4.61
672,Sri Aman,MY,2022-04-26 07:30:42,1.2376,111.4621,91.45,62,40,2.3
673,Hobyo,SO,2022-04-26 07:30:42,5.3505,48.5268,87.78,54,87,9.26
674,Chifeng,CN,2022-04-26 07:30:43,42.2683,118.9636,54.97,13,0,28.86
675,Inyonga,TZ,2022-04-26 07:27:15,-6.7167,32.0667,71.17,82,69,4.79
676,Iesolo,IT,2022-04-26 07:30:44,45.5331,12.6448,55.98,94,65,8.37
677,Paragominas,BR,2022-04-26 07:30:44,-2.9667,-47.4833,70.86,99,54,2.51
678,Vallenar,CL,2022-04-26 07:30:25,-28.5708,-70.7581,57.07,78,0,1.14
679,Eyl,SO,2022-04-26 07:30:45,7.9803,49.8164,88.72,51,93,9.37
680,Clarksburg,US,2022-04-26 07:30:45,39.2807,-80.3445,62.06,93,100,8.05
681,Tabuk,PH,2022-04-26 07:30:46,17.4189,121.4443,91.53,51,9,7.43
682,Aranos,NA,2022-04-26 07:30:46,-24.1333,19.1167,68.25,19,27,11.23
683,Hamilton,US,2022-04-26 07:26:29,39.1834,-84.5333,49.93,78,20,12.66
684,Aracruz,BR,2022-04-26 07:30:47,-19.8203,-40.2733,69.01,89,2,2.39
